[
  {
    "id": "LUTH",
    "name": "Lagos University Teaching Hospital",
    "address": "Idi-Araba, Surulere, Lagos",
    "phone": "+234180000000",
    "lat": 6.5037,
    "lng": 3.3616
  },
  {
    "id": "UCH",
    "name": "University College Hospital",
    "address": "Queen Elizabeth Rd, Ibadan, Oyo",
    "phone": "+234180000001",
    "lat": 7.4019,
    "lng": 3.8964
  },
  {
    "id": "ABUTH",
    "name": "Ahmadu Bello University Teaching Hospital",
    "address": "Zaria, Kaduna",
    "phone": "+234180000002",
    "lat": 11.0810,
    "lng": 7.7100
  },
  {
    "id": "NAUTH",
    "name": "Nnamdi Azikiwe University Teaching Hospital",
    "address": "Nnewi, Anambra",
    "phone": "+234180000003",
    "lat": 6.0316,
    "lng": 6.9104
  },
  {
    "id": "UCHG",
    "name": "University of Calabar Teaching Hospital",
    "address": "Calabar, Cross River",
    "phone": "+234180000004",
    "lat": 4.9636,
    "lng": 8.3417
  },
  {
    "id": "UMTH",
    "name": "University of Maiduguri Teaching Hospital",
    "address": "Maiduguri, Borno",
    "phone": "+234180000005",
    "lat": 11.8311,
    "lng": 13.1510
  },
  {
    "id": "UBTH",
    "name": "University of Benin Teaching Hospital",
    "address": "Ugbowo, Benin City",
    "phone": "+234180000006",
    "lat": 6.3350,
    "lng": 5.6037
  },
  {
    "id": "FTHA",
    "name": "Federal Teaching Hospital Abakaliki",
    "address": "Abakaliki, Ebonyi",
    "phone": "+234180000007",
    "lat": 6.3350,
    "lng": 8.1000
  }
]
